{
  "organizations": [
    {
      "id": "space-hacker-milano",
      "name": "Spazio Hacker Milano",
      "city": "Milano",
      "country": "Italy",
      "region": "Lombardia",
      "province": "Milano",
      "address": "Via Tortona 56",
      "zipCode": "20144",
      "sector": "Hackerspace",
      "website": "https://hackerspaces.org/milan",
      "email": "info@milanhackerspace.org",
      "phone": "+39 02 1234567",
      "coordinates": {
        "lat": 45.4642,
        "lng": 9.19
      }
    },
    {
      "id": "naples-fablab",
      "name": "Naples Fablab",
      "city": "Naples",
      "country": "Italy",
      "region": "Campania",
      "province": "Naples",
      "address": "Via San Biagio dei Librai 39",
      "zipCode": "80138",
      "sector": "Fablab",
      "website": "https://fablabnapoli.it",
      "email": "make@fablabnapoli.it",
      "phone": "+39 081 5557890",
      "coordinates": {
        "lat": 40.8518,
        "lng": 14.2681
      }
    },
    {
      "id": "impact-hub-firenze",
      "name": "Impact Hub Firenze",
      "city": "Firenze",
      "country": "Italy",
      "region": "Toscana",
      "province": "Firenze",
      "address": "Via Panciatichi 10-14",
      "zipCode": "50127",
      "sector": "Coworking",
      "website": "https://florence.impacthub.net",
      "email": "florence@impacthub.net",
      "coordinates": {
        "lat": 43.7696,
        "lng": 11.2558
      }
    },
    {
      "id": "talent-garden-genova",
      "name": "Talent Garden Genova",
      "city": "Genova",
      "country": "Italy",
      "region": "Liguria",
      "province": "Genova",
      "address": "Via Greto di Cornigliano 6R",
      "zipCode": "16152",
      "sector": "Coworking",
      "website": "https://talentgarden.org/genova",
      "coordinates": {
        "lat": 44.4056,
        "lng": 8.9463
      }
    },
    {
      "id": "fablab-palermo",
      "name": "FabLab Palermo",
      "city": "Palermo",
      "country": "Italy",
      "region": "Sicilia",
      "province": "Palermo",
      "address": "Via Paolo Gili 4",
      "zipCode": "90138",
      "sector": "Fablab",
      "email": "info@fablabpalermo.org",
      "coordinates": {
        "lat": 38.1157,
        "lng": 13.3615
      }
    },
    {
      "id": "contamination-lab-venezia",
      "name": "Contamination Lab Venezia",
      "city": "Venezia",
      "country": "Italy",
      "region": "Veneto",
      "province": "Venezia",
      "address": "Dorsoduro 3246",
      "zipCode": "30123",
      "sector": "Education",
      "website": "https://www.unive.it/clab",
      "coordinates": {
        "lat": 45.4371,
        "lng": 12.3326
      }
    },
    {
      "id": "open-source-house-trento",
      "name": "Open Source House Trento",
      "city": "Trento",
      "country": "Italy",
      "region": "Trentino-Alto Adige",
      "province": "Trento",
      "address": "Via Belenzani 12",
      "zipCode": "38122",
      "sector": "Hackerspace",
      "coordinates": {
        "lat": 46.0748,
        "lng": 11.1217
      }
    },
    {
      "id": "4",
      "name": "Talent Garden Calabiana",
      "city": "Milan",
      "country": "Italy",
      "region": "Lombardy",
      "province": "Milan",
      "address": "Via Arcivescovo Calabiana 6",
      "zipCode": "20139",
      "sector": "Coworking",
      "website": "https://talentgarden.org/milan",
      "email": "milano@talentgarden.it",
      "phone": "+39 02 8976543",
      "coordinates": {
        "lat": 45.4642,
        "lng": 9.19
      }
    },
    {
      "id": "6",
      "name": "Permaculture Learning Center",
      "city": "Florence",
      "country": "Italy",
      "region": "Tuscany",
      "province": "Florence",
      "address": "Via delle Cascine 33",
      "zipCode": "50144",
      "sector": "Permaculture",
      "website": "https://permaculture.florence.it",
      "email": "learn@permaculture.florence.it",
      "phone": "+39 055 123456",
      "coordinates": {
        "lat": 43.7696,
        "lng": 11.2558
      }
    },
    {
      "id": "7",
      "name": "Inner Growth Space",
      "city": "Bologna",
      "country": "Italy",
      "region": "Emilia-Romagna",
      "province": "Bologna",
      "address": "Via del Pratello 90",
      "zipCode": "40122",
      "sector": "Inner Development",
      "website": "https://innergrowth.bologna.it",
      "email": "info@innergrowth.bologna.it",
      "phone": "+39 051 987654",
      "coordinates": {
        "lat": 44.4949,
        "lng": 11.3426
      }
    },
    {
      "id": "1739875771317",
      "name": "Andrea Folino",
      "city": "Torino",
      "country": "Italy",
      "region": "Torino",
      "province": "Torino",
      "address": "Via Torino 3",
      "zipCode": "10040",
      "sector": "Web3",
      "website": "",
      "email": "andreafolino.bm@gmail.com",
      "phone": "",
      "coordinates": {
        "lat": 45.0703,
        "lng": 7.6869
      }
    },
    {
      "id": "1739876800564",
      "name": "ETHNA",
      "city": "Catania",
      "country": "Italy",
      "region": "Sicilia",
      "province": "Catania",
      "address": "Via Stramondo 22",
      "zipCode": "95131",
      "sector": "Events",
      "website": "https://ethna.rocks",
      "email": "lava@ethna.rocks",
      "phone": "",
      "coordinates": {
        "lat": 37.5079,
        "lng": 15.083
      }
    },
    {
      "id": "1739879945817",
      "name": "Toolbox ",
      "city": "Torino",
      "country": "Italy",
      "region": "Piemonte ",
      "province": "To",
      "address": "Via Agostino da Montefeltro 2",
      "zipCode": "10134",
      "sector": "Coworking",
      "website": "https://toolboxcoworking.com/",
      "email": "",
      "phone": "",
      "coordinates": {
        "lat": 45.0703,
        "lng": 7.6869
      }
    },
    {
      "id": "1739881737960",
      "name": "YOMI",
      "city": "Ragusa",
      "country": "Italy",
      "region": "Sicilia",
      "province": "Ragusa",
      "address": "Via Gian Domenico Cavallaro 51",
      "zipCode": "97100",
      "sector": "Coworking",
      "website": "https://yomi.digital",
      "email": "hey@yomi.digital",
      "phone": "",
      "coordinates": {
        "lat": 36.9269,
        "lng": 14.7255
      }
    },
    {
      "id": "2",
      "name": "Talent Garden Genova",
      "city": "Genova",
      "country": "Italy",
      "region": "Liguria",
      "province": "Genova",
      "address": "Via Greto di Cornigliano 6R",
      "zipCode": "16152",
      "sector": "Coworking",
      "coordinates": {
        "lat": 44.4056,
        "lng": 8.9463
      }
    },
    {
      "id": "5",
      "name": "Open Source House Trento",
      "city": "Trento",
      "country": "Italy",
      "region": "Trentino-Alto Adige",
      "province": "Trento",
      "address": "Via Belenzani 12",
      "zipCode": "38122",
      "sector": "Hackerspace",
      "coordinates": {
        "lat": 46.0748,
        "lng": 11.1217
      }
    },
    {
      "id": "1740161236579",
      "name": "PIM",
      "city": "Milano",
      "country": "Italy",
      "region": "Lombardia",
      "province": "Milano",
      "address": "Viale Legioni Romane 7",
      "zipCode": "20147",
      "sector": "Events",
      "website": "",
      "email": "",
      "phone": "",
      "coordinates": {
        "lat": 45.46378696472409,
        "lng": 9.19020968177533
      }
    },
    {
      "id": "1740161966775",
      "name": "livio",
      "city": "aidone",
      "country": "Italy",
      "region": "sicilia",
      "province": "enna",
      "address": "via garibaldi 55",
      "zipCode": "94010",
      "sector": "Fablab",
      "website": "",
      "email": "",
      "phone": "",
      "coordinates": {
        "lat": 37.41513372918796,
        "lng": 14.447165528729945
      }
    },
    {
      "id": "1740163583971",
      "name": "L'Eretico",
      "city": "Ramacca",
      "country": "Italy",
      "region": "Sicilia",
      "province": "Catania",
      "address": "via firenze 9",
      "zipCode": "95040",
      "sector": "Events",
      "website": "https://lereticobooking.com",
      "email": "leretico@gmail.com",
      "phone": "333333333333",
      "coordinates": {
        "lat": 37.38333309746828,
        "lng": 14.694266299626523
      }
    },
    {
      "id": "1740179863270",
      "name": "Urbe",
      "city": "Roma",
      "country": "Italy",
      "region": "Lazio",
      "province": "Roma",
      "address": "Largo Dino Frisullo",
      "zipCode": "00153",
      "sector": "Hackerspace",
      "website": "",
      "email": "",
      "phone": "",
      "coordinates": {
        "lat": 41.87470348394303,
        "lng": 12.474681178458477
      }
    },
    {
      "id": "1740179979969",
      "name": "ASDASD",
      "city": "ROma",
      "country": "Italy",
      "region": "Lazio",
      "province": "ROma",
      "address": "Via Latina",
      "zipCode": "00031",
      "sector": "Fablab",
      "website": "",
      "email": "",
      "phone": "",
      "coordinates": {
        "lat": 41.8031724,
        "lng": 12.638868
      }
    },
    {
      "id": "1740180648617",
      "name": "BRABRA",
      "city": "bari",
      "country": "Italy",
      "region": "puglia",
      "province": "bari",
      "address": "via roma 55",
      "zipCode": "70126",
      "sector": "Permaculture",
      "website": "",
      "email": "",
      "phone": "",
      "coordinates": {
        "lat": 41.0736836,
        "lng": 16.8718925
      }
    },
    {
      "id": "1740241272778",
      "name": "Moulin Rouge",
      "city": "Parigi",
      "country": "France",
      "region": "Ile De France",
      "province": "Parigi",
      "address": "82 Bd de Clichy",
      "zipCode": "75018",
      "sector": "Coworking",
      "website": "",
      "email": "",
      "phone": "",
      "coordinates": {
        "lat": 48.8841094,
        "lng": 2.3323564
      }
    },
    {
      "id": "hackerspace-berlin",
      "name": "C-Base Hackerspace",
      "city": "Berlin",
      "country": "Germany",
      "region": "Berlin",
      "province": "Berlin",
      "address": "Rungestra√üe 20",
      "zipCode": "10179",
      "sector": "Hackerspace",
      "website": "https://c-base.org",
      "email": "info@c-base.org",
      "phone": "+49 30 12345678",
      "coordinates": {
        "lat": 52.5123,
        "lng": 13.4178
      }
    },
    {
      "id": "impact-hub-amsterdam",
      "name": "Impact Hub Amsterdam",
      "city": "Amsterdam",
      "country": "Netherlands",
      "region": "North Holland",
      "province": "Amsterdam",
      "address": "Linnaeusstraat 2C",
      "zipCode": "1092CK",
      "sector": "Coworking",
      "website": "https://amsterdam.impacthub.net",
      "email": "amsterdam@impacthub.net",
      "coordinates": {
        "lat": 52.3602,
        "lng": 4.9186
      }
    },
    {
      "id": "fab-lab-barcelona",
      "name": "Fab Lab Barcelona",
      "city": "Barcelona",
      "country": "Spain",
      "region": "Catalonia",
      "province": "Barcelona",
      "address": "Carrer de Pujades 102",
      "zipCode": "08005",
      "sector": "Urban Garden",
      "website": "https://fablabbcn.org",
      "email": "info@fablabbcn.org",
      "coordinates": {
        "lat": 41.3975,
        "lng": 2.1927
      }
    },
    {
      "id": "station-f-paris",
      "name": "Station F",
      "city": "Paris",
      "country": "France",
      "region": "Ile-de-France",
      "province": "Paris",
      "address": "5 Parvis Alan Turing",
      "zipCode": "75013",
      "sector": "Coworking",
      "website": "https://stationf.co",
      "email": "contact@stationf.co",
      "coordinates": {
        "lat": 48.8339,
        "lng": 2.3712
      }
    },
    {
      "id": "betahaus-copenhagen",
      "name": "Betahaus Copenhagen",
      "city": "Copenhagen",
      "country": "Denmark",
      "region": "Capital Region",
      "province": "Copenhagen",
      "address": "Thoravej 26",
      "zipCode": "2400",
      "sector": "Coworking",
      "website": "https://copenhagen.betahaus.dk",
      "email": "copenhagen@betahaus.dk",
      "coordinates": {
        "lat": 55.7046,
        "lng": 12.5409
      }
    },
    {
      "id": "spaghetteth-1740391785245",
      "name": "SPAGHETTETH",
      "city": "TORINO",
      "country": "Italy",
      "region": "PIEMONTE",
      "province": "TORINO",
      "address": "Via Treviso 36",
      "zipCode": "10144",
      "sectors": [
        "Events",
        "Web3"
      ],
      "website": "https://spaghett-eth.com",
      "email": "",
      "phone": "",
      "coordinates": {
        "lat": 45.086822049999995,
        "lng": 7.667006244190803
      }
    }
  ]
}